City ID,City,Cloudiness,Country,Date,Humidity,Latitude,Longitude,Temperature,Wind Speed
0,Huayucachi,84,PE,1659415498,80,-12.1333,-75.2333,10.28,0.7
1,Barentin,87,FR,1659415498,94,49.5453,0.9552,16.79,1.54
2,Bilibino,73,RU,1659415498,34,68.0546,166.4372,21.47,8.22
3,Laas,97,IT,1659415498,82,46.6166,10.7002,15.17,1.24
4,Mataura,10,NZ,1659415499,75,-46.1927,168.8643,6.93,5.11
5,Vardø,100,NO,1659415499,93,70.3705,31.1107,10.99,1.03
6,Yellowknife,20,CA,1659415499,39,62.456,-114.3525,18.29,2.57
7,Jamestown,100,US,1659415463,73,42.097,-79.2353,21.26,6.17
8,Guymon,0,US,1659415499,61,36.6828,-101.4816,25.0,3.09
9,Pouébo,38,NC,1659415500,75,-20.4,164.5667,25.37,3.31
10,Punta Arenas,75,CL,1659415479,61,-53.15,-70.9167,8.06,7.2
11,Saint-Augustin,38,CA,1659415384,98,51.226,-58.6502,16.27,2.84
12,Batagay-Alyta,94,RU,1659415500,66,67.8006,130.4114,15.46,3.44
13,Moose Factory,0,CA,1659415500,100,51.2585,-80.6094,8.99,2.57
14,Tura,100,IN,1659415500,76,25.5198,90.2201,28.84,1.33
15,Nha Trang,90,VN,1659415501,63,12.25,109.1833,32.0,2.53
16,Brae,100,GB,1659415501,97,60.3964,-1.353,12.85,7.53
17,Hirara,40,JP,1659415501,70,24.8,125.2833,31.15,5.66
18,Rikitea,24,PF,1659415502,74,-23.1203,-134.9692,22.93,11.04
19,Albany,37,US,1659415355,80,42.6001,-73.9662,20.96,1.78
20,Vejen Municipality,100,DK,1659415502,100,55.4833,9.15,7.81,1.54
21,Yulara,40,AU,1659415502,17,-25.2406,130.9889,26.91,12.35
22,Nikolskoye,100,RU,1659415502,96,59.7035,30.7861,18.29,3.95
23,Mar del Plata,0,AR,1659415475,72,-38.0023,-57.5575,10.0,4.47
24,Kabo,100,CF,1659415503,97,7.6994,18.629,20.62,1.53
25,Hobart,75,AU,1659415278,56,-42.8794,147.3294,13.45,5.66
26,Cidreira,70,BR,1659415503,88,-30.1811,-50.2056,13.36,0.97
27,New Norfolk,55,AU,1659415503,67,-42.7826,147.0587,11.02,1.34
28,Codrington,100,AU,1659415504,56,-38.2667,141.9667,14.12,9.89
29,Chapais,100,CA,1659415504,97,49.7834,-74.8492,17.88,4.9
30,Dunedin,48,NZ,1659415504,54,-45.8742,170.5036,12.09,5.01
31,Upington,0,ZA,1659415504,62,-28.4478,21.2561,12.21,3.09
32,Ushuaia,20,AR,1659415371,65,-54.8,-68.3,6.81,2.57
33,Acaraú,47,BR,1659415505,81,-2.8856,-40.12,25.53,7.27
34,Vaini,40,TO,1659415505,94,-21.2,-175.2,26.09,3.6
35,Petropavlovsk-Kamchatskiy,75,RU,1659415505,68,53.0452,158.6483,18.33,3.0
36,Khatanga,100,RU,1659415506,63,71.9667,102.5,9.99,4.22
37,Canton of Neuchâtel,66,CH,1659415506,84,46.9167,6.8333,16.38,0.0
38,Cape Town,0,ZA,1659415230,81,-33.9258,18.4232,9.77,4.47
39,Puerto Colombia,100,CO,1659415506,81,10.9878,-74.9547,27.05,3.27
40,Pyaozerskiy,99,RU,1659415506,81,65.8333,31.1667,15.37,2.33
41,Asău,67,RO,1659415231,88,46.4333,26.4,16.51,1.59
42,Chokurdakh,92,RU,1659415507,63,70.6333,147.9167,14.2,2.21
43,Goderich,47,CA,1659415507,83,43.7501,-81.7165,20.17,6.17
44,Atuona,15,PF,1659415507,73,-9.8,-139.0333,25.25,7.18
45,Shahr-e Kord,0,IR,1659415507,56,32.3256,50.8644,21.87,2.06
46,Ribeira Grande,3,PT,1659415508,74,38.5167,-28.7,23.31,5.21
47,Puerto Ayora,72,EC,1659415508,93,-0.7393,-90.3518,21.42,4.92
48,Vao,72,NC,1659415508,85,-22.6667,167.4833,22.57,6.96
49,Tautira,15,PF,1659415508,76,-17.7333,-149.15,24.61,10.97
50,Vanimo,93,PG,1659415509,65,-2.6741,141.3028,30.1,4.46
51,Hasaki,100,JP,1659415509,74,35.7333,140.8333,36.22,5.01
52,Vila Velha,40,BR,1659415509,87,-20.3297,-40.2925,22.19,3.09
53,Upernavik,100,GL,1659415509,75,72.7868,-56.1549,7.25,3.11
54,Gibraleón,0,ES,1659415510,62,37.3763,-6.969,23.1,0.82
55,Gulu,100,UG,1659415510,98,2.7746,32.299,17.69,1.39
56,Busselton,96,AU,1659415510,73,-33.65,115.3333,12.48,11.17
57,Egvekinot,9,RU,1659415510,53,66.3167,-179.1667,13.07,2.59
58,Nouadhibou,75,MR,1659415511,88,20.931,-17.0347,21.99,6.17
59,Lewistown,0,US,1659415511,100,40.5992,-77.5714,21.41,0.0
60,Avarua,75,CK,1659415255,64,-21.2078,-159.775,24.03,3.6
61,Lerwick,100,GB,1659415511,98,60.1545,-1.1494,13.0,9.29
62,Hilo,75,US,1659415512,81,19.7297,-155.09,23.94,3.09
63,Sitka,100,US,1659415512,88,57.0531,-135.33,13.94,1.54
64,Fortuna,70,US,1659415512,81,40.5982,-124.1573,16.16,1.25
65,Dzilam González,43,MX,1659415512,83,21.2833,-88.9333,26.03,2.5
66,Aruppukkottai,100,IN,1659415513,59,9.5167,78.1,29.24,4.02
67,Fort Nelson,75,CA,1659415392,88,58.8053,-122.7002,13.77,1.54
68,Qaanaaq,38,GL,1659415513,65,77.484,-69.3632,5.7,2.67
69,Wau,99,SS,1659415513,93,7.7029,27.9953,20.03,0.28
70,Orzu,2,TJ,1659415513,18,37.5593,68.8184,32.22,3.49
71,Te Anau,90,NZ,1659415514,90,-45.4167,167.7167,9.13,4.11
72,Cortez,0,US,1659415514,64,37.3489,-108.5859,19.31,0.0
73,"Burgdorf, Hanover",73,DE,1659415514,91,52.4463,10.0064,11.76,0.77
74,Shar,54,KZ,1659415514,42,49.5886,81.0453,26.07,3.29
75,Iqaluit,20,CA,1659415515,87,63.7506,-68.5145,7.61,1.03
76,Panama City,100,PA,1659415515,90,8.9936,-79.5197,25.54,1.03
77,Korla,96,CN,1659415515,31,41.7597,86.1469,29.44,3.48
78,Tasiilaq,3,GL,1659415516,67,65.6145,-37.6368,6.09,1.97
79,Kapaa,75,US,1659415216,75,22.0752,-159.319,25.78,8.75
80,Bethel,0,US,1659415516,94,41.3712,-73.414,19.69,1.54
81,Chumikan,100,RU,1659415516,99,54.7183,135.315,13.35,0.38
82,General Roca,0,AR,1659415516,50,-39.0333,-67.5833,9.39,2.54
83,Beloha,81,MG,1659415517,59,-25.1667,45.05,18.89,5.22
84,Bredasdorp,0,ZA,1659415224,85,-34.5322,20.0403,6.6,1.32
85,Belmonte,41,BR,1659415517,88,-15.8631,-38.8828,21.44,2.03
86,Lorengau,46,PG,1659415517,77,-2.0226,147.2712,28.44,4.97
87,Hermanus,0,ZA,1659415517,64,-34.4187,19.2345,6.0,3.42
88,Ullapool,100,GB,1659415518,97,57.8987,-5.1604,16.86,3.86
89,Butaritari,89,KI,1659415518,73,3.0707,172.7902,27.83,8.93
90,Castro,57,BR,1659415518,78,-24.7911,-50.0119,13.28,0.67
91,São João da Barra,16,BR,1659415518,90,-21.6403,-41.0511,21.25,5.88
92,Cherskiy,100,RU,1659415519,77,68.75,161.3,16.57,5.14
93,Dakar,40,SN,1659415356,78,14.6937,-17.4441,27.07,7.2
94,San Antonio,0,US,1659415244,62,29.4241,-98.4936,29.48,7.72
95,Acapulco de Juárez,75,MX,1659415237,74,16.8634,-99.8901,28.9,2.06
96,Yar-Sale,26,RU,1659415519,53,66.8333,70.8333,18.21,1.78
97,Porto-Novo,100,BJ,1659415519,81,6.4965,2.6036,23.02,2.8
98,Sangar,100,RU,1659415520,81,63.9242,127.4739,18.81,4.83
99,Saint-Philippe,0,RE,1659415520,72,-21.3585,55.7679,22.34,1.85
100,Bluff,41,NZ,1659415520,79,-46.6,168.3333,7.11,9.99
101,Lavrentiya,48,RU,1659415521,73,65.5833,-171.0,10.45,2.5
102,Honningsvåg,0,NO,1659415521,87,70.9821,25.9704,10.86,0.51
103,Aksarka,15,RU,1659415521,46,66.5606,67.7975,18.68,3.47
104,Sibolga,100,ID,1659415521,85,1.7427,98.7792,26.58,1.01
105,Faanui,2,PF,1659415522,73,-16.4833,-151.75,25.6,10.0
106,Sørland,100,NO,1659415522,74,67.667,12.6934,10.92,4.74
107,Viedma,48,AR,1659415522,87,-40.8135,-62.9967,6.6,2.19
108,Sambava,28,MG,1659415522,77,-14.2667,50.1667,21.81,5.41
109,Diego de Almagro,4,CL,1659415523,64,-26.3667,-70.05,11.05,0.19
110,Souillac,40,MU,1659415523,88,-20.5167,57.5167,20.21,1.54
111,Yokadouma,99,CM,1659415523,92,3.5167,15.05,20.32,0.92
112,Lüderitz,13,NA,1659415523,83,-26.6481,15.1594,10.82,0.75
113,George Town,20,MY,1659415338,73,5.4112,100.3354,31.57,3.09
114,Monywa,99,MM,1659415524,56,22.1167,95.1333,33.04,3.35
115,Acajutla,80,SV,1659415524,80,13.5928,-89.8275,26.23,2.35
116,Bengkulu,78,ID,1659415524,72,-3.8004,102.2655,28.38,2.96
117,Chui,46,UY,1659415524,94,-33.6971,-53.4616,10.95,1.29
118,Sragen,57,ID,1659415525,52,-7.4264,111.0222,31.95,0.37
119,Qian’an,59,CN,1659415525,47,44.9932,124.0581,33.53,2.27
120,Ponta do Sol,6,PT,1659415525,80,32.6667,-17.1,20.29,2.94
121,Longyearbyen,75,SJ,1659415525,87,78.2186,15.6401,9.91,2.06
122,Anadyr,0,RU,1659415526,45,64.75,177.4833,20.28,2.0
123,Morón,100,AR,1659415526,87,-34.6534,-58.6198,10.99,2.22
124,Ossora,48,RU,1659415526,74,59.2353,163.0719,16.19,3.71
125,Mulchén,1,CL,1659415526,97,-37.7167,-72.2333,4.15,1.6
126,Port Alfred,48,ZA,1659415527,60,-33.5906,26.891,12.87,3.25
127,Sembakung,99,ID,1659415527,60,3.8167,117.25,30.45,0.82
128,Lesozavodsk,61,RU,1659415527,66,45.4794,133.4244,30.2,2.33
129,Hithadhoo,65,MV,1659415432,72,-0.6,73.0833,27.16,6.03
130,Challans,78,FR,1659415527,83,46.8436,-1.8749,17.98,2.58
131,Kelo,100,TD,1659415528,96,9.3086,15.8066,21.3,2.72
132,Tuktoyaktuk,75,CA,1659415528,71,69.4541,-133.0374,13.0,5.66
133,Tiksi,98,RU,1659415528,83,71.6872,128.8694,6.78,2.86
134,Saint-Leu,0,RE,1659415528,58,-21.15,55.2833,21.6,0.81
135,Rundu,41,NA,1659415529,38,-17.9333,19.7667,11.33,1.69
136,Ust-Nera,100,RU,1659415529,44,64.5667,143.2,26.55,2.59
137,Bathsheba,40,BB,1659415529,90,13.2167,-59.5167,27.25,7.2
138,Itarema,58,BR,1659415529,80,-2.9248,-39.9167,25.55,6.68
139,Dingli,0,MT,1659415530,88,35.8614,14.3822,24.09,0.51
140,Fairbanks,100,US,1659415530,85,64.8378,-147.7164,14.98,8.75
141,Cayenne,20,GF,1659415530,1,4.9333,-52.3333,26.72,0.0
142,Ceres,0,US,1659415530,52,37.5949,-120.9577,25.92,5.14
143,Broken Hill,100,AU,1659415531,24,-31.95,141.4333,17.24,10.68
144,Yenagoa,100,NG,1659415531,88,4.9247,6.2642,22.97,1.55
145,Dikson,100,RU,1659415531,87,73.5069,80.5464,5.33,2.43
146,Marawi,99,PH,1659415531,84,7.9986,124.2928,24.98,1.82
147,Mikhaylovskoye,51,RU,1659415532,59,51.8239,79.7172,23.03,3.99
148,Kahului,40,US,1659415532,66,20.8947,-156.47,27.3,8.23
149,Pisco,4,PE,1659415532,88,-13.7,-76.2167,13.03,3.09
150,Skole,77,UA,1659415532,88,49.0372,23.5135,16.21,1.01
151,North Augusta,75,US,1659415533,78,33.5018,-81.9651,25.8,1.54
152,Matagami,100,CA,1659415533,94,49.7502,-77.6328,13.06,7.2
153,Salalah,100,OM,1659415125,100,17.0151,54.0924,24.05,2.57
154,Muros,0,ES,1659415533,82,42.7762,-9.0603,19.49,2.86
155,Barrow,100,US,1659415533,87,71.2906,-156.7887,5.01,5.14
156,Tateyama,100,JP,1659415534,82,34.9833,139.8667,28.85,7.39
157,Kiryat Gat,6,IL,1659415534,100,31.61,34.7642,24.39,2.49
158,Sydney,0,AU,1659415444,36,-33.8679,151.2073,18.99,4.63
159,Bolobo,59,CD,1659415534,57,-2.1667,16.2333,22.64,1.18
160,Ust-Kuyga,100,RU,1659415534,74,70.0167,135.6,11.01,3.71
161,Saryozek,5,KZ,1659415535,28,44.3583,77.9753,27.63,1.16
162,Nizhnevartovsk,0,RU,1659415535,51,60.9344,76.5531,17.01,4.02
163,Gambēla,100,ET,1659415535,98,8.25,34.5833,20.15,1.11
164,Jinchang,100,CN,1659415536,52,38.4953,102.1739,22.2,7.97
165,Qasigiannguit,60,GL,1659415536,79,68.8193,-51.1922,9.14,3.02
166,East London,0,ZA,1659415536,81,-33.0153,27.9116,9.52,2.06
167,Thompson,40,CA,1659415536,82,55.7435,-97.8558,11.09,1.03
168,Nabire,98,ID,1659415537,68,-3.3667,135.4833,28.98,2.57
169,Kupang,94,ID,1659415537,51,-10.1667,123.5833,30.2,0.89
170,Amapá,49,BR,1659415537,99,1.0,-52.0,20.98,0.73
171,Port-Cartier,93,CA,1659415418,96,50.0334,-66.8654,16.53,2.23
172,Okhotsk,78,RU,1659415537,77,59.3833,143.3,17.04,2.0
173,Kavieng,99,PG,1659415538,76,-2.5744,150.7967,28.37,7.16
174,Mount Gambier,100,AU,1659415538,54,-37.8333,140.7667,13.95,10.29
175,São Filipe,61,CV,1659415538,86,14.8961,-24.4956,24.2,2.99
176,San Isidro,100,PE,1659415171,85,-12.1167,-77.05,16.12,5.14
177,Khandyga,100,RU,1659415538,81,62.6667,135.6,18.99,0.68
178,Meulaboh,100,ID,1659415539,88,4.1363,96.1285,26.01,5.33
179,Biltine,88,TD,1659415539,75,14.5333,20.9167,23.29,3.49
180,Ambon City,75,ID,1659415357,89,-3.6954,128.1814,26.08,2.06
181,Caravelas,5,BR,1659415539,87,-17.7125,-39.2481,20.64,2.11
182,Severo-Kuril'sk,24,RU,1659415539,80,50.6789,156.125,13.46,2.37
183,Strezhevoy,4,RU,1659415540,43,60.7333,77.5889,17.24,5.29
184,Maniitsoq,100,GL,1659415540,85,65.4167,-52.9,7.21,4.3
185,Torbay,75,CA,1659415508,79,47.6666,-52.7314,18.8,4.12
186,Hamilton,0,US,1659415501,92,39.1834,-84.5333,24.66,3.6
187,Nelson Bay,0,AU,1659415476,38,-32.7167,152.15,18.86,2.68
188,Madimba,40,TZ,1659415540,94,-10.4,40.3333,20.62,5.14
189,Beringovskiy,12,RU,1659415541,72,63.05,179.3167,12.34,3.33
190,Qaqortoq,100,GL,1659415458,75,60.7167,-46.0333,7.63,1.67
191,Ichinohe,99,JP,1659415541,89,40.2069,141.3017,25.55,4.98
192,Carnarvon,92,AU,1659415541,52,-24.8667,113.6333,19.76,7.18
193,Port Hardy,20,CA,1659415541,77,50.6996,-127.4199,15.1,3.09
194,Saint George,0,US,1659415418,40,37.1041,-113.5841,31.52,2.57
195,Mahébourg,40,MU,1659415318,88,-20.4081,57.7,20.16,1.54
196,La Ciotat,32,FR,1659415542,48,43.1748,5.6045,23.77,2.59
197,Natal,100,BR,1659414942,78,-5.795,-35.2094,25.12,3.09
198,Punta Cardon,93,VE,1659415542,84,11.6581,-70.215,26.2,9.65
199,Matara,88,LK,1659415542,81,5.9485,80.5353,27.05,8.05
200,Paoua,100,CF,1659415543,97,7.2427,16.4406,19.93,1.58
201,Adrar,45,MR,1659415543,45,20.5022,-10.0711,29.13,7.34
202,Loralai,7,PK,1659415543,63,30.3705,68.598,25.94,2.59
203,Leningradskiy,30,RU,1659415543,49,69.3833,178.4167,14.53,1.2
204,Malbork,43,PL,1659415544,77,54.0359,19.0266,16.62,1.54
205,Nome,100,US,1659415083,72,64.5011,-165.4064,17.04,2.57
206,Narsaq,100,GL,1659415544,73,60.9167,-46.05,7.12,0.64
207,Laguna,0,US,1659415544,66,38.421,-121.4238,24.35,3.09
208,Flin Flon,89,CA,1659415544,70,54.7682,-101.865,14.01,1.94
209,Grindavik,75,IS,1659415545,76,63.8424,-22.4338,8.26,8.23
210,Haapiti,7,PF,1659415545,71,-17.5667,-149.8667,25.4,10.49
211,Saint Paul Harbor,0,US,1659415545,51,57.79,-152.4072,16.73,6.17
212,Chahal Guatemala,86,GT,1659415545,99,15.75,-89.5667,22.17,0.35
213,Grootfontein,0,NA,1659415546,55,-19.5667,18.1167,1.76,0.51
214,Bambous Virieux,40,MU,1659415546,88,-20.3428,57.7575,20.14,1.54
215,Vadsø,75,NO,1659415546,100,70.0744,29.7487,13.09,2.06
216,Shakawe,31,BW,1659415546,39,-18.3667,21.85,13.99,3.08
217,Altay,45,CN,1659415547,26,47.8667,88.1167,27.35,5.4
218,Havøysund,0,NO,1659415547,75,70.9963,24.6622,11.13,1.76
219,Ojinaga,0,MX,1659415547,33,29.5667,-104.4167,32.53,6.69
220,Cabo San Lucas,90,MX,1659415522,60,22.8909,-109.9124,30.28,4.22
221,Devils Lake,0,US,1659415547,83,48.1128,-98.8651,20.99,4.63
222,Mersing,40,MY,1659415548,79,2.4312,103.8405,30.95,1.03
223,Eureka,73,US,1659415318,83,40.8021,-124.1637,16.67,1.53
224,Agadez,19,NE,1659415548,49,19.75,10.25,27.66,6.91
225,Lebu,4,CL,1659415548,85,-37.6167,-73.65,7.28,5.44
226,Hrodna,1,BY,1659415548,93,53.6884,23.8258,12.72,4.0
227,Segovia,2,ES,1659415501,53,41.1667,-4.0,21.35,3.44
228,Soyo,33,AO,1659415549,91,-6.1349,12.3689,19.83,4.28
229,Aklavik,100,CA,1659415549,59,68.2191,-135.0107,16.44,4.18
230,Damietta,0,EG,1659415549,72,31.4165,31.8133,26.14,3.47
231,Bubaque,95,GW,1659415550,80,11.2833,-15.8333,26.06,6.63
232,NEDJO,100,ET,1659415550,99,9.5046,35.5019,13.73,0.62
233,Phayakkhaphum Phisai,86,TH,1659415550,57,15.5163,103.1937,33.01,4.9
234,Vanderhoof,31,CA,1659415410,48,54.0166,-124.0198,17.44,3.09
235,Hoima,100,UG,1659415550,98,1.4356,31.3436,16.97,0.51
236,Ahipara,99,NZ,1659415551,74,-35.1667,173.1667,13.78,2.89
237,City of San Pedro,40,PH,1659415057,69,14.35,121.0167,30.63,1.03
238,Valdivia,7,CL,1659415551,98,-39.8142,-73.2459,0.05,0.97
239,Gumdag,0,TM,1659415551,27,39.2061,54.5906,32.64,2.58
240,Norman Wells,40,CA,1659415383,52,65.282,-126.8329,20.02,6.17
241,Sakmara,5,RU,1659415552,56,51.9844,55.3338,21.7,3.74
242,Emba,98,KZ,1659415552,47,48.8264,58.1442,24.4,2.34
243,Kudahuvadhoo,100,MV,1659415552,73,2.6708,72.8944,27.76,7.84
244,Faya,100,SA,1659415552,69,18.3851,42.4509,14.29,2.43
245,Oktyabr'skoye,26,RU,1659415553,64,43.0645,44.7417,21.86,1.0
246,Batticaloa,100,LK,1659415553,64,7.7102,81.6924,28.65,2.62
247,Gemeente Barneveld,99,NL,1659415553,77,52.1333,5.5833,13.96,3.18
248,Jega,97,NG,1659415553,88,12.2175,4.3792,23.34,3.33
249,Ilulissat,20,GL,1659415554,76,69.2167,-51.1,9.01,4.63
250,Byron Bay,12,AU,1659415261,60,-28.65,153.6167,20.52,3.8
251,Masuguru,40,TZ,1659415554,65,-11.3667,38.4167,22.35,2.45
252,Sekoma,41,BW,1659415554,81,-24.4,23.8833,11.46,9.32
253,Nevel'sk,84,RU,1659415554,80,46.6733,141.8633,18.42,4.05
254,Nefteyugansk,45,RU,1659415256,51,61.0998,72.6035,16.99,5.87
255,Anju,98,KP,1659415555,96,39.6178,125.6647,25.14,2.0
256,Port Elizabeth,0,ZA,1659415480,93,-33.918,25.5701,6.16,1.03
257,Samarai,21,PG,1659415555,81,-10.6167,150.6667,27.37,5.44
258,Evensk,99,RU,1659415555,92,61.95,159.2333,11.91,4.49
259,Athens,20,GR,1659415505,51,37.9795,23.7162,27.17,4.12
260,Leshukonskoye,14,RU,1659415556,76,64.8989,45.7622,16.79,3.28
261,Constitución,26,CL,1659415556,81,-35.3333,-72.4167,8.64,3.02
262,Tarakan,40,ID,1659415556,70,3.3,117.6333,30.72,2.06
263,Kaitangata,13,NZ,1659415556,59,-46.2817,169.8464,12.07,5.07
264,Seoul,100,KR,1659415285,82,37.5683,126.9778,27.97,5.14
265,Clyde River,100,CA,1659415557,100,70.4692,-68.5914,3.13,2.57
266,West Wendover,75,US,1659415557,39,40.7391,-114.0733,26.56,7.2
267,Oranjestad,40,AW,1659415543,83,12.524,-70.027,27.97,7.2
268,Arraial do Cabo,7,BR,1659415557,90,-22.9661,-42.0278,21.14,8.49
269,Teberda,18,RU,1659415557,64,43.4456,41.7448,21.8,0.62
270,Northam,100,GB,1659415558,97,51.0333,-4.2167,17.79,7.66
271,Vitim,44,RU,1659415558,46,59.4511,112.5578,27.59,2.66
272,Kavaratti,100,IN,1659415558,89,10.5669,72.642,24.83,11.84
273,Narva-Jõesuu,100,EE,1659415558,89,59.4589,28.0408,17.07,3.84
274,Zhengjiatun,8,CN,1659415559,60,43.5064,123.5064,31.92,1.71
275,Oktyabr'skiy,8,RU,1659415559,75,54.4815,53.471,19.6,4.46
276,Marsh Harbour,29,BS,1659415559,73,26.5412,-77.0636,27.57,4.63
277,Olinda,100,BR,1659415317,94,-8.0089,-34.8553,21.85,3.6
278,St. George's,40,GD,1659415559,83,12.0564,-61.7485,26.82,5.14
279,Los Llanos de Aridane,0,ES,1659415560,78,28.6585,-17.9182,22.29,7.72
280,Hambantota,75,LK,1659415560,83,6.1241,81.1185,28.19,5.66
281,Sunnyside,0,US,1659415560,43,46.3237,-120.0087,27.25,2.06
282,Gilbués,16,BR,1659415560,44,-9.8317,-45.3439,20.79,2.65
283,Kruisfontein,88,ZA,1659415561,46,-34.0033,24.7314,10.0,2.64
284,Kalmunai,100,LK,1659415561,70,7.4167,81.8167,27.4,2.29
285,Palmer,20,US,1659415561,87,42.1584,-72.3287,19.61,3.6
286,Balkanabat,0,TM,1659415547,28,39.5108,54.3671,33.39,1.25
287,Vozhega,100,RU,1659415561,68,60.4725,40.2213,17.31,2.84
288,Hobyo,6,SO,1659415562,73,5.3505,48.5268,25.64,9.74
289,Dori,52,BF,1659415562,76,14.0354,-0.0345,25.11,5.48
290,Cotonou,86,BJ,1659415562,81,6.3654,2.4183,23.39,4.85
291,Moerai,51,PF,1659415563,65,-22.4333,-151.3333,22.75,6.17
292,Ialibu,32,PG,1659415563,73,-6.2821,143.9935,19.74,1.81
293,Saskylakh,100,RU,1659415563,61,71.9167,114.0833,7.84,5.12
294,Nampula,75,MZ,1659415563,100,-15.1165,39.2666,18.97,4.12
295,Isangel,69,VU,1659415564,80,-19.55,169.2667,25.78,5.49
296,Grand Gaube,2,MU,1659415564,73,-20.0064,57.6608,22.43,1.34
297,Manggar,87,ID,1659415564,68,-2.8833,108.2667,29.33,4.72
298,Philadelphia,0,US,1659415268,93,39.9523,-75.1638,20.92,0.0
299,San Patricio,1,US,1659415564,75,28.017,-97.5169,28.33,6.82
300,Ormond Beach,40,US,1659415273,90,29.2858,-81.0559,26.83,2.06
301,Sept-Îles,75,CA,1659415565,92,50.2001,-66.3821,16.71,3.09
302,Rio Grande,65,BR,1659415359,93,-32.035,-52.0986,12.59,0.46
303,Avera,84,US,1659415565,75,33.194,-82.5271,25.21,2.56
304,San Cristobal,100,VE,1659415565,94,7.7669,-72.225,21.1,1.56
305,Nantucket,100,US,1659415565,94,41.2835,-70.0995,21.22,3.09
306,Nakamura,60,JP,1659415566,62,32.9833,132.9333,31.84,2.71
307,Neiafu,40,TO,1659415566,78,-18.65,-173.9833,26.38,4.12
308,Hualmay,46,PE,1659415566,84,-11.0964,-77.6139,16.31,3.46
309,Mineros,39,BO,1659415566,79,-17.1167,-63.2333,20.24,1.86
310,Mandalgovi,0,MN,1659415567,42,45.7625,106.2708,25.05,3.38
311,Angoche,82,MZ,1659415567,79,-16.2325,39.9086,23.51,5.14
312,Airai,69,TL,1659415567,39,-8.9266,125.4092,24.47,1.77
313,Umluj,59,SA,1659415567,49,25.0213,37.2685,30.81,2.41
314,Murdochville,52,CA,1659415568,88,48.9583,-65.5006,20.49,2.65
315,Lonār,98,IN,1659415568,68,19.9833,76.5333,27.65,4.77
316,Jalu,0,LY,1659415568,65,29.0331,21.5482,25.67,3.85
317,Tessalit,7,ML,1659415568,42,20.1986,1.0114,30.77,9.42
318,Rabak,97,SD,1659415569,83,13.1809,32.74,23.69,5.99
319,Vancouver,20,CA,1659415458,82,49.2497,-123.1193,20.4,1.54
320,Lere,100,NG,1659415569,96,10.387,8.5726,20.02,3.37
321,Esperance,69,AU,1659415569,58,-33.8667,121.9,14.91,15.05
322,Celestún,36,MX,1659415570,86,20.8667,-90.4,26.39,5.34
323,Kampot,98,KH,1659415570,71,10.6167,104.1833,29.03,2.24
324,Berlevåg,100,NO,1659415544,100,70.8578,29.0864,10.26,1.54
325,Suntar,100,RU,1659415570,85,62.1444,117.6319,19.44,2.77
326,Taoudenni,2,ML,1659415570,10,22.6783,-3.9836,35.03,3.31
327,Pangnirtung,100,CA,1659415571,89,66.1451,-65.7125,6.55,0.44
328,Abhā,75,SA,1659415332,88,18.2164,42.5053,14.14,3.09
329,Pingdingshan,1,CN,1659415571,38,33.7385,113.3012,36.5,3.48
330,Sokoni,25,TZ,1659415571,73,-6.4333,39.55,24.34,4.54
331,Bandarbeyla,24,SO,1659415572,55,9.4942,50.8122,27.67,12.5
332,Lompoc,0,US,1659415572,89,34.6391,-120.4579,17.99,1.54
333,Dukhovshchina,81,RU,1659415572,71,55.1919,32.4111,17.9,3.24
334,Maracaju,0,BR,1659415572,41,-21.6144,-55.1683,21.07,1.32
335,Caucaia,0,BR,1659415573,77,-3.7361,-38.6531,26.13,3.09
336,Mandalay,96,MM,1659415364,55,21.9747,96.0836,33.69,2.93
337,Port-Gentil,52,GA,1659415573,75,-0.7193,8.7815,23.79,3.08
338,Karachi,75,PK,1659415285,83,24.9056,67.0822,27.9,6.17
339,Tuatapere,61,NZ,1659415573,89,-46.1333,167.6833,9.85,4.36
340,Hay River,40,CA,1659415573,72,60.8156,-115.7999,14.99,2.57
341,Merauke,93,ID,1659415574,83,-8.4667,140.3333,26.93,7.03
342,Huarmey,52,PE,1659415574,86,-10.0681,-78.1522,16.87,3.41
343,Roald,0,NO,1659415574,87,62.5833,6.1333,11.2,4.63
344,Kenai,100,US,1659415574,92,60.5544,-151.2583,12.89,3.6
345,Broome,85,US,1659415575,85,42.2506,-75.833,20.48,1.34
346,Laksar,6,IN,1659415575,59,29.7667,78.05,32.44,1.64
347,Belaya Gora,100,RU,1659415575,90,68.5333,146.4167,13.67,4.41
348,Kimbe,30,PG,1659415575,60,-5.5502,150.1429,30.82,1.82
349,Nadvoitsy,88,RU,1659415576,76,63.8667,34.3167,15.08,3.42
350,Chiredzi,97,ZW,1659415576,90,-21.05,31.6667,16.12,3.19
351,Keti Bandar,91,PK,1659415576,80,24.1447,67.4497,28.49,7.53
352,Udachny,100,RU,1659415577,87,66.4167,112.4,10.25,6.6
353,Mayna,85,RU,1659415577,62,54.1135,47.6231,18.83,3.15
354,Ust'-Ilimsk,100,RU,1659415577,81,58.0006,102.6619,22.02,2.51
355,Kyzyl-Suu,50,KG,1659415577,46,42.3414,78.0056,20.53,3.17
356,Lázaro Cárdenas,99,MX,1659415292,87,17.9583,-102.2,27.02,1.23
357,Tilichiki,60,RU,1659415578,79,60.4667,166.1,13.9,3.32
358,Lotofaga,25,WS,1659415578,76,-13.9764,-171.8578,30.88,10.08
359,Klaksvík,100,FO,1659415578,94,62.2266,-6.589,10.51,4.95
360,Cachoeira do Sul,64,BR,1659415461,96,-30.0392,-52.8939,11.04,2.01
361,Bamenda,100,CM,1659415578,98,5.9527,10.1582,16.71,0.9
362,Parabel',0,RU,1659415579,52,58.6978,81.4825,17.71,4.36
363,Port Blair,40,IN,1659415067,79,11.6667,92.75,30.02,4.12
364,Forestville,75,US,1659415579,90,38.8451,-76.875,23.15,8.75
365,Chokwé,69,MZ,1659415579,76,-24.5333,32.9833,17.7,1.98
366,Lima,100,PE,1659415242,85,-12.0432,-77.0282,15.5,5.14
367,Bredy,99,RU,1659415580,88,52.4153,60.3411,17.02,3.59
368,Batemans Bay,4,AU,1659415580,41,-35.7167,150.1833,15.61,2.87
369,Heihe,37,CN,1659415580,34,50.2441,127.4902,26.32,5.83
370,Satka,100,RU,1659415580,95,55.0425,59.04,15.6,2.14
371,Touros,15,BR,1659415314,85,-5.1989,-35.4608,22.26,5.64
372,Leh,8,IN,1659415581,46,34.1667,77.5833,16.58,2.3
373,Barhi,78,IN,1659415581,58,23.9,80.8,31.45,2.55
374,Hong Kong,72,HK,1659415282,78,22.2855,114.1577,31.57,2.24
375,Smithers,0,CA,1659415347,51,54.7804,-127.1743,17.18,3.6
376,Kirakira,64,SB,1659415581,74,-10.4544,161.9205,28.52,4.29
377,Sabana de Torres,100,CO,1659415581,92,7.3915,-73.4957,25.34,0.79
378,Waitara,100,NZ,1659415582,75,-38.925,174.25,11.11,7.62
379,Mehamn,0,NO,1659415582,88,71.0357,27.8492,12.97,1.03
380,Province of Mantua,100,IT,1659415582,66,45.1667,10.7833,23.82,0.93
381,Crib Point,95,AU,1659415582,61,-38.35,145.2,16.36,8.77
382,Oussouye,68,SN,1659415583,87,12.485,-16.5469,25.1,3.42
383,Iquique,44,CL,1659415583,81,-20.2208,-70.1431,15.02,0.57
384,Dufftown,100,GB,1659415583,88,57.4333,-3.1333,15.62,4.19
385,Ca Mau,100,VN,1659415401,79,9.1769,105.15,27.94,1.9
386,Innisfail,100,AU,1659415584,91,-17.5333,146.0333,21.91,3.39
387,Yaransk,60,RU,1659415584,72,57.3033,47.8861,19.13,3.49
388,Kommunisticheskiy,33,RU,1659415584,37,61.6789,64.4819,21.82,1.72
389,Togur,0,RU,1659415584,49,58.3631,82.8265,18.32,4.11
390,Yingkou,20,CN,1659415585,75,40.6648,122.2283,29.53,3.44
391,Svelgen,99,NO,1659415585,63,61.7685,5.2955,12.95,3.04
392,Nur-Sultan,40,KZ,1659415585,73,51.1801,71.446,20.97,6.0
393,Salihorsk,100,BY,1659415585,92,52.7876,27.5415,17.18,4.08
394,Sarangani,90,PH,1659415586,74,5.4033,125.4636,28.33,5.37
395,Turukhansk,42,RU,1659415586,42,65.8167,87.9833,17.5,5.93
396,Bose,1,IT,1659415586,63,45.4612,8.0137,20.04,2.02
397,Isla Mujeres,40,MX,1659415586,85,21.2311,-86.731,28.98,3.88
398,Marang,100,MY,1659415587,83,5.2056,103.2059,28.85,1.71
399,De-Kastri,100,RU,1659415587,97,51.4667,140.7833,14.72,5.0
400,Jérémie,61,HT,1659415587,82,18.65,-74.1167,27.3,2.37
401,Beyneu,9,KZ,1659415587,28,45.3167,55.2,31.22,4.88
402,Japura,99,ID,1659415588,84,-0.3167,102.35,28.07,1.52
403,Praia,20,CV,1659415588,83,14.9215,-23.5087,23.3,0.51
404,Zhigansk,80,RU,1659415588,49,66.7697,123.3711,16.66,9.35
405,Mondeville,100,FR,1659415588,94,49.175,-0.3224,16.33,1.54
406,Hofn,91,IS,1659415589,78,64.2539,-15.2082,8.6,4.6
407,Forsytheganj,100,BY,1659415589,70,52.6333,29.7333,19.8,1.35
408,Yerofey Pavlovich,93,RU,1659415589,52,53.9667,121.9667,25.39,2.56
409,Puerto del Rosario,0,ES,1659415589,61,28.5004,-13.8627,25.86,6.17
410,Syracuse,0,IT,1659415413,65,37.0881,15.2792,21.65,2.84
411,Paidha,100,UG,1659415590,94,2.4167,30.9855,14.64,1.24
412,Pevek,100,RU,1659415590,61,69.7008,170.3133,10.3,6.4
413,Alofi,10,NU,1659415590,78,-19.0595,-169.9187,24.94,5.14
414,Nichinan,73,JP,1659415590,69,31.6,131.3667,30.82,4.06
415,Talnakh,14,RU,1659415591,55,69.4865,88.3972,10.67,7.54
416,Caniço,20,PT,1659415591,77,32.6333,-16.85,20.65,5.66
417,Saint Anthony,0,US,1659415591,73,45.0205,-93.218,20.09,1.54
418,Togul,75,RU,1659415591,74,53.465,85.9128,20.94,4.1
419,Urusha,95,RU,1659415592,52,54.05,122.9,25.48,2.67
420,Kyra,43,RU,1659415592,47,49.5776,111.9753,27.77,3.4
421,Mount Isa,2,AU,1659415592,20,-20.7333,139.5,30.87,3.6
422,Nanortalik,100,GL,1659415592,76,60.1432,-45.2371,7.4,4.8
423,Tibú,100,CO,1659415593,99,8.639,-72.7358,22.78,1.29
424,Paramonga,81,PE,1659415593,86,-10.6667,-77.8333,16.5,3.29
425,Daru,88,PG,1659415593,86,-9.0763,143.2092,26.54,6.16
426,Progreso,42,MX,1659415330,87,21.2833,-89.6667,26.73,5.35
427,Tambovka,69,RU,1659415594,46,50.0969,128.0489,31.69,6.74
428,Rocha,53,UY,1659415594,97,-34.4833,-54.3333,9.75,1.33
429,Myślibórz,34,PL,1659415594,71,52.9238,14.8679,16.41,1.61
430,Mayo,21,US,1659415389,87,38.8876,-76.5119,24.5,0.89
431,Fethiye,0,TR,1659415594,42,36.6217,29.1164,28.93,0.67
432,Saint-Pierre,0,RE,1659415595,52,-21.3393,55.4781,22.22,2.06
433,Warah,0,PK,1659415595,51,27.4481,67.7978,36.26,2.01
434,Huanuni,0,BO,1659415595,44,-18.2667,-66.85,2.86,1.51
435,Conceição do Araguaia,92,BR,1659415595,47,-8.2578,-49.2647,24.94,1.02
436,Canutama,98,BR,1659415596,80,-6.5339,-64.3831,24.21,1.33
437,San Rafael,5,AR,1659415596,47,-34.6177,-68.3301,9.62,3.54
438,Guerrero Negro,0,MX,1659415590,75,27.9769,-114.0611,22.52,6.06
439,Mapimí,36,MX,1659415578,40,25.8167,-103.85,24.7,1.84
440,Dospat,0,BG,1659415596,57,41.65,24.1667,15.39,1.36
441,Semnan,0,IR,1659415596,24,35.5729,53.3971,27.91,1.03
442,Suifenhe,26,CN,1659415597,49,44.4,131.1667,31.12,1.52
443,Estación Coahuila,0,MX,1659415597,36,32.1939,-115.0017,34.81,4.51
444,Chalmette,100,US,1659415597,84,29.9427,-89.9634,24.28,2.66
445,Włocławek,87,PL,1659415597,74,52.6482,19.0678,16.96,2.85
446,Provideniya,75,RU,1659415598,93,64.3833,-173.3,8.06,4.0
447,Cap Malheureux,2,MU,1659415598,73,-19.9842,57.6142,22.48,1.34
448,Aleksandrov Gay,5,RU,1659415598,40,50.147,48.5704,26.58,5.05
449,Prado,34,BR,1659415598,86,-17.3411,-39.2208,21.37,2.77
450,Winkler,72,CA,1659415599,82,49.1817,-97.941,17.97,0.51
451,Klyuchi,65,RU,1659415599,63,52.2667,79.1667,21.39,3.8
452,Ostrovnoy,100,RU,1659415599,91,68.0531,39.5131,13.06,6.41
453,Quryq,20,KZ,1659415600,32,43.2,51.65,31.52,2.88
454,Vostok,98,RU,1659415600,51,46.4856,135.8833,26.82,2.86
455,Tashara,19,RU,1659415600,47,55.5195,83.5094,20.74,3.81
456,Kiunga,99,PG,1659415600,65,-6.1219,141.2906,30.62,1.59
457,Port Lincoln,100,AU,1659415553,84,-34.7333,135.8667,11.63,13.91
458,Luanda,75,AO,1659415601,94,-8.8368,13.2343,18.0,1.54
459,Marzuq,14,YE,1659415601,61,14.4,46.4667,25.45,3.2
460,Yining,0,CN,1659415601,37,29.0361,114.5636,38.45,0.81
461,Kashgar,20,CN,1659415601,50,39.4547,75.9797,24.56,2.0
462,Deputatsky,100,RU,1659415602,95,69.3,139.9,8.75,1.4
463,Maxixe,40,MZ,1659415602,77,-23.8597,35.3472,18.8,6.26
464,Camaná,54,PE,1659415602,80,-16.6228,-72.7111,14.64,1.92
465,Geraldton,75,AU,1659415602,63,-28.7667,114.6,18.23,10.8
466,Pangody,30,RU,1659415603,46,65.85,74.4859,17.49,4.42
467,Mildura,100,AU,1659415248,42,-34.2,142.15,16.71,11.15
468,Vuktyl,63,RU,1659415603,42,63.8567,57.3094,21.17,3.06
469,Chittarkonda,99,IN,1659415603,67,18.1167,82.0833,30.31,0.73
470,Seydi,19,TM,1659415603,18,39.4816,62.9137,32.43,6.08
471,Nacogdoches,100,US,1659415604,75,31.6002,-94.6335,28.47,2.57
472,Ixtapa,100,MX,1659415604,89,20.7,-105.2,27.57,3.09
473,Koumac,51,NC,1659415604,75,-20.5667,164.2833,25.21,2.84
474,Pratāpgarh,22,IN,1659415604,70,24.0333,74.7833,28.55,6.23
475,Chernyshevskiy,51,RU,1659415605,54,63.0128,112.4714,24.62,2.43
476,Lewisburg,0,US,1659415530,89,35.4492,-86.7889,23.51,0.0
477,Glendive,0,US,1659415605,56,47.1053,-104.7125,25.78,4.63
478,Krasnogorskoye,71,RU,1659415605,56,52.2953,86.1979,23.24,2.73
479,Bintulu,20,MY,1659415344,62,3.1667,113.0333,31.62,1.54
480,Khorixas,0,NA,1659415605,78,-20.3667,14.9667,3.65,2.16
481,Puerto Ayacucho,88,VE,1659415606,93,5.6639,-67.6236,23.25,0.95
482,Švenčionys,88,LT,1659415606,90,55.15,26.1667,14.58,2.07
483,College,100,US,1659415568,84,64.8569,-147.8028,15.19,8.75
484,Kanniyākumāri,100,IN,1659415606,80,8.0833,77.5667,26.53,10.14
485,Pergamino,100,AR,1659415607,91,-33.89,-60.5736,7.73,0.89
486,Grand Forks,0,US,1659415607,82,47.9417,-97.4337,18.97,3.09
487,Maţāy,1,EG,1659415607,46,28.419,30.7792,27.68,4.15
488,Shirakawa,66,JP,1659415607,42,37.1223,140.2376,30.21,4.74
489,Pospelikha,52,RU,1659415608,50,51.95,81.7667,25.47,1.44
490,Äänekoski,87,FI,1659415608,100,62.6946,25.818,13.83,0.77
491,Rāzole,96,IN,1659415608,59,16.4833,81.8333,32.67,2.63
492,Florø,75,NO,1659415608,58,61.5996,5.0328,13.97,6.69
493,Dwārka,99,IN,1659415609,76,22.2394,68.9678,28.21,6.93
494,Port Hawkesbury,75,CA,1659415609,94,45.6169,-61.3485,18.47,3.09
495,Jinka,100,ET,1659415609,98,5.65,36.65,15.25,0.47
496,Russell,40,US,1659415609,100,32.3502,-85.1999,22.91,0.0
497,Tallmadge,100,US,1659415610,89,41.1015,-81.4418,21.88,3.6
498,Alvarães,100,BR,1659415610,99,-3.2208,-64.8042,22.58,0.49
499,Sobolevo,95,RU,1659415610,76,54.4299,31.8996,17.6,3.02
500,Gunjur,40,GM,1659415610,94,13.2019,-16.7339,24.04,0.0
501,Alekseyevsk,61,RU,1659415611,50,57.8406,108.3492,27.66,1.49
502,Necochea,100,AR,1659415611,82,-38.5473,-58.7368,10.52,3.35
503,Turaif,0,SA,1659415611,57,31.6725,38.6637,24.14,2.06
504,Portland,20,US,1659415179,65,45.5234,-122.6762,24.02,3.6
505,Miranda,99,CO,1659415612,91,3.2499,-76.2281,21.07,1.76
506,Betzdorf,90,DE,1659415612,85,50.7833,7.8833,14.17,2.57
507,Semīrom,84,IR,1659415612,33,31.4167,51.5667,22.94,1.29
508,Denpasar,40,ID,1659415398,79,-8.65,115.2167,28.73,6.17
509,Elizabethton,100,US,1659415352,87,36.3487,-82.2107,22.61,2.57
510,Miraflores,100,MX,1659415612,87,19.2167,-98.8083,16.0,0.99
511,Mapiripán,98,CO,1659415613,98,2.8892,-72.1256,22.26,2.32
512,Tulum,9,MX,1659415613,92,20.2167,-87.4667,25.97,2.27
513,Chivasso,0,IT,1659415613,70,45.1894,7.8872,20.22,3.09
514,Avilés,75,ES,1659415613,85,43.5547,-5.9248,20.83,3.09
515,South Kazakhstan Region,100,KZ,1659415614,21,43.0,68.0,32.73,0.84
516,Antofagasta,46,CL,1659415564,86,-23.65,-70.4,13.6,1.71
517,Orsha,99,BY,1659415614,83,54.5153,30.4053,18.27,0.85
518,Linxia Chengguanzhen,80,CN,1659415614,45,35.6003,103.2064,28.01,2.28
519,Labuhan,79,ID,1659415614,61,-6.8844,112.2051,30.78,4.78
520,Gravdal,75,NO,1659415615,93,68.1214,13.5031,9.94,4.63
521,Nemuro,100,JP,1659415615,94,43.3236,145.575,14.85,7.58
522,Zhezkazgan,20,KZ,1659415615,32,47.8043,67.7144,27.99,3.0
523,Raja,100,SS,1659415615,89,8.4596,25.678,20.41,1.22
524,Naze,66,JP,1659415616,77,28.3667,129.4833,29.51,4.78
525,Port Townsend,0,US,1659415616,80,48.117,-122.7605,15.8,5.36
526,Maní,56,CO,1659415616,97,4.8172,-72.2886,21.2,1.83
527,Verkhniy Ufaley,90,RU,1659415616,74,56.0567,60.2306,15.12,3.53
528,Ascension,0,US,1659415617,98,30.2169,-90.9001,24.47,0.0
529,Miandrivazo,0,MG,1659415617,52,-19.5167,45.4667,22.77,2.02
530,Vestmannaeyjar,23,IS,1659415617,76,63.4427,-20.2734,7.87,6.58
531,Saldanha,7,ZA,1659415617,70,-33.0117,17.9442,7.03,5.31
532,Tamiahua,40,MX,1659415618,88,21.2667,-97.45,25.48,3.08
533,Presidencia Roque Sáenz Peña,37,AR,1659415618,74,-26.7852,-60.4388,16.28,2.77
534,Atar,98,MR,1659415618,57,20.5169,-13.0499,28.44,2.41
535,Hokitika,100,NZ,1659415618,88,-42.7167,170.9667,13.17,12.8
536,Igrim,18,RU,1659415619,44,63.1906,64.4162,20.89,1.62
537,Altar,3,MX,1659415619,49,30.7,-111.8167,31.73,4.81
538,Husavik,100,IS,1659415619,94,66.0449,-17.3389,6.35,3.2
539,Sur,17,OM,1659415619,57,22.5667,59.5289,32.7,0.56
540,Oudtshoorn,100,ZA,1659415620,33,-33.5907,22.2014,11.78,2.08
541,Ganta,99,LR,1659415620,99,7.3022,-8.5308,19.46,0.63
542,Curaçá,0,BR,1659415620,78,-8.9903,-39.9094,19.41,5.55
543,Halifax,12,CA,1659415197,95,44.6453,-63.5724,17.56,4.12
544,Usinsk,63,RU,1659415620,44,65.9939,57.5281,20.93,6.49
545,Manjacaze,84,MZ,1659415621,67,-24.7117,33.8828,18.48,1.86
546,Amasya,14,TR,1659415621,70,40.6533,35.8331,21.85,1.43
547,Ancud,11,CL,1659415621,86,-41.8697,-73.8203,5.68,1.67
548,Mpika,0,ZM,1659415622,76,-11.8343,31.4529,11.55,2.65
549,Sioux Lookout,75,CA,1659415622,100,50.1001,-91.917,15.04,2.57
550,Shingū,100,JP,1659415622,51,33.7333,135.9833,33.88,3.68
551,Hare Bay,100,CA,1659415622,94,48.8499,-54.0148,16.78,0.54
552,Wairoa,99,NZ,1659415623,61,-39.0333,177.3667,12.11,3.47
553,Sistranda,84,NO,1659415623,72,63.7256,8.834,9.98,2.97
554,Storforshei,75,NO,1659415623,81,66.4043,14.5233,9.88,1.54
555,Borogontsy,100,RU,1659415623,97,62.6683,131.1683,16.26,2.79
556,Kameoka,90,JP,1659415624,52,35.0,135.5833,35.16,2.85
557,Sabang,100,ID,1659415538,84,5.8933,95.3214,26.35,11.93
